City,Cloudiness,Country,Date,Humidity,Lat,Lng,Max Temp,Wind Speed
Mathbaria,0,BD,1585526597,41.0,22.29,89.96,24.41,1.77
Punta Arenas,75,CL,1585526598,57.0,-53.15,-70.92,11.0,5.7
Praia,40,CV,1585526598,78.0,14.92,-23.51,22.0,7.7
Lebu,0,CL,1585526598,68.0,-37.62,-73.65,12.86,7.69
Ketchikan,90,US,1585526419,93.0,55.34,-131.65,4.0,10.3
Carnarvon,72,AU,1585526599,78.0,-24.87,113.63,22.0,5.1
Shahreza,54,IR,1585526600,35.0,32.03,51.88,7.88,2.3
Hobart,75,AU,1585526406,51.0,-42.88,147.33,17.78,8.2
Ushuaia,40,AR,1585526591,57.0,-54.8,-68.3,11.0,3.6
Coquimbo,81,CL,1585526370,82.0,-29.95,-71.34,17.0,3.6
Mâncio Lima,75,BR,1585526601,100.0,-7.61,-72.9,23.0,0.98
Owando,73,CG,1585526602,68.0,-0.48,15.9,24.38,0.53
Jamestown,90,US,1585526327,75.0,42.1,-79.24,13.33,8.7
Tadine,14,NC,1585526602,68.0,-21.55,167.88,26.28,8.63
Esperance,50,AU,1585526603,100.0,-33.87,121.9,12.0,3.6
Qaanaaq,98,GL,1585526604,88.0,77.48,-69.36,-19.69,1.56
Saint Paul Harbor,1,US,1585526605,40.0,57.79,-152.41,1.0,5.7
Pevek,100,RU,1585526606,89.0,69.7,170.31,-8.06,13.58
Saint-Philippe,15,RE,1585526606,78.0,-21.36,55.77,26.0,2.1
Cabo San Lucas,40,MX,1585526354,53.0,22.89,-109.91,25.0,3.6
Chokurdakh,100,RU,1585526608,95.0,70.63,147.92,-13.53,4.31
Zhigansk,97,RU,1585526608,94.0,66.77,123.37,-14.02,2.67
Nikolskoye,2,RU,1585526609,67.0,59.7,30.79,-2.78,2.0
Vaini,75,TO,1585526609,94.0,-21.2,-175.2,26.0,2.6
Te Anau,2,NZ,1585526610,50.0,-45.42,167.72,15.36,0.24
Constitución,3,CL,1585526610,70.0,-35.33,-72.42,14.45,6.05
Cape Town,0,ZA,1585526462,82.0,-33.93,18.42,16.11,4.1
Hilo,90,US,1585526545,83.0,19.73,-155.09,22.0,5.1
Mar del Plata,48,AR,1585526352,88.0,-38.0,-57.56,19.44,4.1
Avarua,20,CK,1585526436,70.0,-21.21,-159.78,30.0,4.1
Mataura,18,NZ,1585526611,70.0,-46.19,168.86,17.78,2.68
Port Alfred,43,ZA,1585526612,97.0,-33.59,26.89,16.67,0.34
New Norfolk,75,AU,1585526612,51.0,-42.78,147.06,17.78,8.2
Eenhana,100,NA,1585526612,65.0,-17.47,16.33,20.12,3.29
Albany,90,US,1585526372,70.0,42.6,-73.97,10.0,1.5
Pachino,90,IT,1585526613,81.0,36.72,15.09,12.22,0.5
Grand Gaube,40,MU,1585526613,88.0,-20.01,57.66,27.0,3.6
Severo-Kuril'sk,50,RU,1585526421,90.0,50.68,156.12,-0.5,4.69
Yangi Marg`ilon,92,UZ,1585526614,34.0,40.43,71.72,10.0,2.1
Tuktoyaktuk,40,CA,1585526614,69.0,69.45,-133.04,-25.0,4.6
Atuona,7,PF,1585526363,76.0,-9.8,-139.03,28.34,6.92
Sampit,100,ID,1585526614,95.0,-2.53,112.95,25.1,1.0
Ribeira Grande,49,PT,1585526615,79.0,38.52,-28.7,14.81,7.25
Jianning,75,CN,1585526341,100.0,27.83,113.15,8.0,2.0
Castro,63,BR,1585526615,72.0,-24.79,-50.01,17.16,0.58
Komatipoort,2,ZA,1585526616,94.0,-25.43,31.95,18.89,0.77
Ilulissat,100,GL,1585526616,100.0,69.22,-51.1,-1.0,2.6
Hithadhoo,99,MV,1585526370,64.0,-0.6,73.08,28.73,4.3
Xichang,10,CN,1585526543,37.0,27.9,102.26,11.66,0.91
Vila Velha,61,BR,1585526487,88.0,-20.33,-40.29,25.56,1.5
Bredasdorp,8,ZA,1585526617,72.0,-34.53,20.04,16.0,2.6
Rodney,90,CA,1585526617,76.0,42.57,-81.68,9.44,10.3
Bubaque,0,GW,1585526399,70.0,11.28,-15.83,26.42,7.76
Busselton,48,AU,1585526619,89.0,-33.65,115.33,14.44,0.38
Cidreira,2,BR,1585526619,85.0,-30.18,-50.21,23.12,4.76
Rikitea,24,PF,1585526620,77.0,-23.12,-134.97,26.53,4.44
Butaritari,100,KI,1585526376,74.0,3.07,172.79,27.93,4.25
Gaimersheim,100,DE,1585526620,74.0,48.81,11.37,2.78,4.1
Aasiaat,100,GL,1585526620,98.0,68.71,-52.87,-3.94,1.64
Cecina,20,IT,1585526621,100.0,43.31,10.52,10.56,1.0
Half Moon Bay,75,US,1585526621,76.0,37.46,-122.43,17.0,3.1
Berlevåg,100,NO,1585526621,93.0,70.86,29.09,-5.26,12.67
Rusape,15,ZW,1585526622,61.0,-18.53,32.13,13.33,1.04
Elk Grove,40,US,1585526389,51.0,38.41,-121.37,19.0,3.1
León,40,MX,1585526504,17.0,21.12,-101.67,30.0,3.6
Kengyel,6,HU,1585526622,61.0,47.08,20.33,8.33,4.1
Antofagasta,79,CL,1585526623,77.0,-23.65,-70.4,18.0,4.1
Lata,98,PT,1585526623,87.0,40.16,-8.33,13.33,1.0
Aizawl,0,IN,1585526623,35.0,23.73,92.72,14.73,1.41
Hambantota,59,LK,1585526624,83.0,6.12,81.12,25.97,4.3
Bonavista,100,CA,1585526624,98.0,48.65,-53.11,-2.57,12.15
Port Macquarie,83,AU,1585526624,78.0,-31.43,152.92,26.11,3.96
Yellowknife,75,CA,1585526625,38.0,62.46,-114.35,-16.0,5.1
Tuatapere,0,NZ,1585526625,70.0,-46.13,167.68,17.78,2.68
Khatanga,100,RU,1585526625,92.0,71.97,102.5,-19.25,1.56
Ust-Maya,79,RU,1585526625,94.0,60.42,134.53,-8.6,0.72
Lichuan,91,CN,1585526626,64.0,30.3,108.85,5.25,0.74
Sisimiut,100,GL,1585526539,92.0,66.94,-53.67,-2.72,15.08
Manta,75,EC,1585526626,69.0,-0.95,-80.73,27.0,2.1
Uíge,99,AO,1585526627,72.0,-7.61,15.06,19.9,0.95
Opuwo,58,NA,1585526627,53.0,-18.06,13.84,21.26,1.74
San Ignacio,20,BZ,1585526628,41.0,17.16,-89.07,34.0,4.1
Kapaa,75,US,1585526386,69.0,22.08,-159.32,27.0,7.2
Upernavik,100,GL,1585526628,94.0,72.79,-56.15,-15.22,5.72
Oga,75,IT,1585526629,92.0,46.46,10.35,1.0,6.2
Ukiah,90,US,1585526629,71.0,39.15,-123.21,15.0,2.1
Arrondissement de Calais,75,FR,1585526629,55.0,50.92,1.83,5.56,5.1
Kahului,40,US,1585526629,54.0,20.89,-156.47,28.0,7.7
Hofn,21,IS,1585526630,63.0,64.25,-15.21,6.13,5.91
Bluff,5,NZ,1585526630,70.0,-46.6,168.33,17.78,2.68
Mabaruma,90,GY,1585526630,79.0,8.2,-59.78,24.83,3.19
Morant Bay,20,JM,1585526631,66.0,17.88,-76.41,29.0,9.8
Hualmay,98,PE,1585526631,74.0,-11.1,-77.61,23.16,2.43
Deputatsky,100,RU,1585526427,86.0,69.3,139.9,-18.27,2.43
Ballina,49,AU,1585526631,78.0,-28.87,153.57,24.0,1.59
Norman Wells,20,CA,1585526632,44.0,65.28,-126.83,-20.0,4.6
Broome,90,US,1585526632,100.0,42.25,-75.83,12.22,3.1
Bandarbeyla,11,SO,1585526632,74.0,9.49,50.81,26.06,2.02
Kabalo,75,CD,1585526632,81.0,-6.05,26.92,21.87,0.13
Bethel,90,US,1585526633,93.0,41.37,-73.41,9.0,1.52
Fare,59,PF,1585526634,75.0,-16.7,-151.02,28.76,4.67
Port Elizabeth,75,ZA,1585526420,63.0,-33.92,25.57,17.0,1.5
Srednekolymsk,7,RU,1585526388,94.0,67.45,153.68,-9.9,3.71
Marystown,41,CA,1585526635,94.0,47.17,-55.15,-2.54,9.48
Thompson,90,CA,1585526584,51.0,55.74,-97.86,-11.0,3.6
Jiwani,50,PK,1585526636,76.0,25.05,61.74,23.39,4.75
Saskylakh,64,RU,1585526636,87.0,71.92,114.08,-26.79,1.24
Santa Inês,79,BR,1585526636,94.0,-3.67,-45.38,24.43,1.52
Casambalangan,65,PH,1585526637,75.0,18.38,122.13,26.43,2.05
Departamento de Maldonado,20,UY,1585526637,100.0,-34.67,-54.92,21.67,1.5
Camacha,40,PT,1585526637,88.0,33.08,-16.33,17.0,3.6
Hermanus,4,ZA,1585526638,90.0,-34.42,19.23,13.89,0.45
Sinnamary,100,GF,1585526638,84.0,5.38,-52.95,26.38,5.41
Kaitangata,61,NZ,1585526638,88.0,-46.28,169.85,13.33,6.26
Lüderitz,0,NA,1585526638,82.0,-26.65,15.16,15.0,6.7
Dutlwe,38,BW,1585526639,55.0,-23.98,23.9,18.73,2.7
George Town,20,MY,1585526639,88.0,5.41,100.34,27.0,2.3
San Juan Bautista,75,PE,1585526639,30.0,-14.01,-75.74,22.0,6.7
Şahbuz,75,AZ,1585526639,81.0,39.41,45.57,8.0,5.1
Pangnirtung,38,CA,1585526640,82.0,66.15,-65.71,-14.19,2.03
Touros,75,BR,1585526640,94.0,-5.2,-35.46,26.0,1.5
Hopkinsville,1,US,1585526641,37.0,36.87,-87.49,20.0,8.2
Puerto Ayora,20,EC,1585526641,74.0,-0.74,-90.35,28.0,5.1
Tārāpur,0,IN,1585526641,54.0,19.85,72.7,25.71,2.95
Khani,90,GE,1585526642,100.0,41.96,42.96,9.0,1.5
Allāpalli,16,IN,1585526642,48.0,19.42,80.07,27.12,2.44
Tasiilaq,100,GL,1585526529,93.0,65.61,-37.64,3.0,6.7
Fort Saint James,85,CA,1585526643,69.0,54.43,-124.25,0.48,3.76
East London,33,ZA,1585526368,83.0,-33.02,27.91,19.8,2.74
Grande Prairie,75,CA,1585526465,78.0,55.17,-118.8,-11.0,4.1
Ostrovnoy,88,RU,1585526382,94.0,68.05,39.51,-7.04,10.25
Mareeba,75,AU,1585526644,88.0,-17.0,145.43,27.22,5.1
Chui,1,UY,1585526644,91.0,-33.7,-53.46,21.99,2.78
Mt. Pleasant,1,US,1585526370,83.0,32.79,-79.86,28.0,5.69
Avera,1,US,1585526645,74.0,33.19,-82.53,29.0,3.6
Ţahţā,4,EG,1585526645,29.0,26.77,31.5,17.0,1.0
Egvekinot,99,RU,1585526386,90.0,66.32,-179.17,-15.0,2.7
São Filipe,100,CV,1585526646,81.0,14.9,-24.5,21.64,5.49
Lyngseidet,75,NO,1585526646,79.0,69.58,20.22,-4.0,14.4
Naze,75,JP,1585526647,82.0,28.37,129.48,20.0,2.1
Faanui,4,PF,1585526648,72.0,-16.48,-151.75,28.44,4.51
Shatalovo,91,RU,1585526648,87.0,54.33,32.45,1.47,7.19
Yavoriv,90,UA,1585526649,75.0,49.94,23.38,5.56,8.0
Mnogovershinnyy,98,RU,1585526649,88.0,53.94,139.92,-1.82,1.9
Hirara,20,JP,1585526649,78.0,24.8,125.28,22.0,2.1
Port Moresby,90,PG,1585526466,88.0,-9.44,147.18,28.0,4.1
Honiara,20,SB,1585526649,70.0,-9.43,159.95,31.0,1.0
Kidal,89,ML,1585526650,15.0,18.44,1.41,27.59,5.9
Havøysund,75,NO,1585526651,79.0,71.0,24.66,-4.0,15.9
Westport,90,US,1585526419,100.0,41.14,-73.36,9.0,6.7
Muravlenko,57,RU,1585526651,95.0,63.79,74.52,-5.14,5.08
Necochea,96,AR,1585526652,83.0,-38.55,-58.74,17.78,2.68
Otradnoye,2,RU,1585526652,67.0,59.78,30.82,-2.78,2.0
Leh,49,IN,1585526652,33.0,34.17,77.58,-12.39,2.06
Hamilton,1,US,1585526512,39.0,39.18,-84.53,18.0,6.2
Oranjestad,20,AW,1585526640,74.0,12.52,-70.03,28.0,9.8
São José da Coroa Grande,65,BR,1585526653,81.0,-8.9,-35.15,27.15,4.75
Ouallam,9,NE,1585526524,13.0,14.32,2.09,29.77,3.38
Yamada,64,JP,1585526654,52.0,39.47,141.95,7.2,1.43
Murmashi,93,RU,1585526654,72.0,68.82,32.81,-8.0,4.0
Agadez,40,NE,1585526654,19.0,19.75,10.25,26.22,2.28
Mount Isa,0,AU,1585526655,40.0,-20.73,139.5,30.0,6.2
Price,90,US,1585526655,45.0,39.6,-110.81,7.0,4.6
Boa Vista,99,BR,1585526655,49.0,2.82,-60.67,32.0,4.1
Salinas,40,US,1585526433,55.0,36.68,-121.66,17.78,6.7
Kruisfontein,7,ZA,1585526536,75.0,-34.0,24.73,14.37,1.84
Santiago,85,CL,1585526400,36.0,-33.46,-70.65,24.0,4.6
Palmares do Sul,4,BR,1585526656,82.0,-30.26,-50.51,22.41,3.14
Bathsheba,40,BB,1585526656,65.0,13.22,-59.52,26.0,8.7
Rafaela,58,AR,1585526657,57.0,-31.25,-61.49,24.44,1.88
Petropavlovsk-Kamchatskiy,18,RU,1585526657,89.0,53.05,158.65,0.0,3.0
Tatsunochō-tominaga,75,JP,1585526658,75.0,34.87,134.55,10.0,1.0
Arman',100,RU,1585526658,93.0,59.7,150.17,-7.34,3.01
Mahébourg,40,MU,1585526658,88.0,-20.41,57.7,27.0,3.6
Havre-St-Pierre,1,CA,1585526658,53.0,50.23,-63.6,-3.0,1.0
Ixtapa,5,MX,1585526413,69.0,20.7,-105.2,26.0,5.7
Souillac,40,MU,1585526659,88.0,-20.52,57.52,27.0,3.6
Galveston,90,US,1585526659,50.0,29.37,-94.97,26.0,7.2
Vila Franca do Campo,75,PT,1585526660,76.0,37.72,-25.43,14.0,3.6
San Patricio,5,MX,1585526660,79.0,19.22,-104.7,29.0,5.1
Hobyo,63,SO,1585526660,82.0,5.35,48.53,27.88,5.26
Leningradskiy,96,RU,1585526365,87.0,69.38,178.42,-2.96,3.58
Chaozhou,90,CN,1585526661,100.0,23.67,116.64,16.0,1.7
Lithakia,20,GR,1585526661,87.0,37.72,20.83,9.0,2.95
Takoradze,97,GH,1585526538,87.0,4.88,-1.76,26.56,2.61
Mossamedes,70,AO,1585526662,72.0,-15.2,12.15,22.35,1.12
Grand-Santi,100,GF,1585526662,93.0,4.25,-54.38,23.98,1.16
Saint-Lô,54,FR,1585526663,55.0,49.12,-1.09,4.0,7.2
Caravelas,52,BR,1585526663,86.0,-17.71,-39.25,25.79,4.78
Jiaojiang,100,CN,1585526663,82.0,28.68,121.44,10.56,1.97
Psebay,100,RU,1585526663,68.0,44.12,40.81,8.84,0.86
Port-Cartier,90,CA,1585526664,54.0,50.03,-66.87,-1.67,3.1
Oriximiná,95,BR,1585526664,81.0,-1.77,-55.87,27.27,2.51
Gladstone,75,AU,1585526665,61.0,-23.85,151.25,28.0,3.1
Airai,90,TL,1585526515,50.0,-8.93,125.41,20.17,1.12
Ganzhou,81,CN,1585526666,79.0,28.82,115.43,8.59,0.84
Longyearbyen,40,SJ,1585526378,70.0,78.22,15.64,-17.0,5.1
Sarab,8,IR,1585526667,43.0,38.61,44.99,7.39,2.8
Eyl,28,SO,1585526667,78.0,7.98,49.82,26.91,3.2
Narsaq,100,GL,1585526668,91.0,60.92,-46.05,1.0,3.69
Saint Anthony,40,US,1585526668,39.0,45.02,-93.22,10.56,2.6
Sur,32,OM,1585526668,72.0,22.57,59.53,23.28,7.77
Kumul,40,CN,1585526375,43.0,42.8,93.45,4.47,4.04
Klaksvík,0,FO,1585526669,93.0,62.23,-6.59,6.0,5.7
Pāli,0,IN,1585526669,27.0,25.77,73.33,22.47,3.42
Kushmurun,63,KZ,1585526669,97.0,52.45,64.63,-4.15,4.34
Hasaki,75,JP,1585526669,75.0,35.73,140.83,7.78,4.1
Ontario,75,US,1585526556,51.0,34.06,-117.65,20.56,6.2
Brønnøysund,99,NO,1585526670,79.0,65.46,12.2,-2.0,4.1
Bonthe,35,SL,1585526671,80.0,7.53,-12.51,27.78,2.93
Jalu,97,LY,1585526671,20.0,29.03,21.55,23.57,2.79
Barrow,1,US,1585526672,63.0,71.29,-156.79,-21.0,8.7
Manaure,2,CO,1585526672,67.0,11.78,-72.44,27.09,8.88
Dalvik,90,IS,1585526672,74.0,65.97,-18.53,5.0,13.9
Nanortalik,100,GL,1585526673,92.0,60.14,-45.24,3.1,8.04
Iracoubo,100,GF,1585526673,84.0,5.48,-53.2,26.26,5.08
Richards Bay,95,ZA,1585526674,84.0,-28.78,32.04,23.51,3.47
Wahiawā,40,US,1585526633,69.0,21.5,-158.02,27.0,5.1
Buraidah,75,SA,1585526674,77.0,26.33,43.98,17.0,4.1
Kanniyākumāri,1,IN,1585526413,75.0,8.08,77.57,27.14,2.24
Inhambane,0,MZ,1585526513,66.0,-23.86,35.38,23.21,3.68
Eresós,20,GR,1585526675,76.0,39.17,25.93,10.0,2.6
Fukuechō,75,JP,1585526675,66.0,32.69,128.84,12.0,3.1
Kieta,81,PG,1585526436,66.0,-6.22,155.63,30.09,3.6
Menongue,100,AO,1585526676,64.0,-14.66,17.69,17.96,2.31
Nicoya,26,CR,1585526676,41.0,10.15,-85.45,33.0,9.3
Pacific Grove,90,US,1585526521,67.0,36.62,-121.92,17.22,4.6
Lorengau,84,PG,1585526524,74.0,-2.02,147.27,29.32,3.8
Tiksi,98,RU,1585526677,90.0,71.69,128.87,-17.42,2.01
Torbay,90,CA,1585526678,100.0,47.67,-52.73,-1.11,12.3
Zyryanka,97,RU,1585526678,93.0,65.75,150.85,-11.63,2.41
Belvedere Marittimo,77,IT,1585526678,94.0,39.62,15.86,8.89,0.45
Salalah,40,OM,1585526678,83.0,17.02,54.09,26.0,5.1
Abadan,75,TM,1585526679,82.0,38.05,58.21,13.0,3.1
Mahanje,100,TZ,1585526679,72.0,-9.93,35.33,18.77,0.47
Nome,1,US,1585526418,56.0,64.5,-165.41,-11.0,1.0
Coruripe,96,BR,1585526680,83.0,-10.13,-36.18,26.86,5.49
Viedma,0,AR,1585526612,58.0,-40.81,-63.0,15.79,3.71
Yar-Sale,38,RU,1585526680,93.0,66.83,70.83,-7.85,9.16
Karratha,21,AU,1585526453,33.0,-20.74,116.85,32.66,5.73
Vorukh,100,TJ,1585526681,32.0,39.85,70.58,7.66,1.01
Husavik,90,IS,1585526639,79.0,66.04,-17.34,5.0,13.9
Gouré,6,NE,1585526682,11.0,13.98,10.27,31.67,4.02
Fortuna,1,US,1585526682,67.0,40.6,-124.16,14.44,5.1
Vardø,40,NO,1585526682,78.0,70.37,31.11,-9.0,8.2
Anadyr,75,RU,1585526682,85.0,64.75,177.48,-7.0,16.0
Ozuluama de Mascareñas,40,MX,1585526683,83.0,21.67,-97.85,27.0,6.2
Miyako,50,JP,1585526683,53.0,39.64,141.95,6.99,1.42
Provideniya,4,RU,1585526684,66.0,64.38,-173.3,-10.0,1.0
Mweka,45,CD,1585526684,84.0,-4.85,21.57,19.14,0.4
Machico,20,PT,1585526684,77.0,32.7,-16.77,17.0,2.6
La Ronge,90,CA,1585526684,55.0,55.1,-105.28,-12.0,7.2
Dāmghān,99,IR,1585526685,53.0,36.17,54.35,8.81,1.09
Cartagena del Chairá,80,CO,1585526685,85.0,1.33,-74.84,24.47,1.7
Rocha,1,UY,1585526685,91.0,-34.48,-54.33,19.91,1.06
Porto Walter,100,BR,1585526685,92.0,-8.27,-72.74,23.03,1.22
Sīrjān,98,IR,1585526686,52.0,29.45,55.68,8.88,4.76
Agüimes,75,ES,1585526686,77.0,27.91,-15.45,17.0,1.5
Årdalstangen,100,NO,1585526686,87.0,61.24,7.7,-2.7,1.85
Yermish',100,RU,1585526687,68.0,54.77,42.27,6.56,3.44
Nador,95,MA,1585526687,67.0,35.17,-2.93,14.0,1.0
North Bend,90,US,1585526687,100.0,43.41,-124.22,13.89,5.7
Wyndham,1,US,1585526544,45.0,37.7,-77.61,29.0,3.1
Yatou,0,CN,1585526688,69.0,37.15,122.38,6.65,2.19
Pontes e Lacerda,98,BR,1585526475,85.0,-15.23,-59.34,24.1,1.04
Saldanha,0,ZA,1585526688,76.0,-33.01,17.94,14.0,3.1
Port Lincoln,69,AU,1585526689,58.0,-34.73,135.87,18.29,4.63
Jamame,59,SO,1585526689,81.0,0.07,42.75,27.74,3.32
Tezu,53,IN,1585526689,37.0,27.92,96.17,21.02,1.08
Thohoyandou,0,ZA,1585526689,45.0,-22.95,30.48,18.56,1.24
Palmer,90,US,1585526690,100.0,42.16,-72.33,8.0,3.1
Arraial do Cabo,81,BR,1585526407,82.0,-22.97,-42.03,25.44,5.27
Kaeo,10,NZ,1585526690,59.0,-35.1,173.78,22.22,0.45
Katsuura,75,JP,1585526691,70.0,35.13,140.3,8.33,5.1
Itupiranga,40,BR,1585526692,88.0,-5.13,-49.33,28.0,0.76
Ilebo,73,CD,1585526692,85.0,-4.32,20.58,21.7,0.74
Carauari,84,BR,1585526693,87.0,-4.88,-66.9,25.31,0.7
Grand Baie,40,MU,1585526693,88.0,-20.02,57.58,27.0,3.6
Olafsvik,98,IS,1585526693,86.0,64.89,-23.71,4.9,9.08
Cayenne,100,GF,1585526693,88.0,4.93,-52.33,26.0,1.0
Yabrūd,22,SY,1585526694,87.0,33.97,36.66,4.44,3.13
Kuytun,100,RU,1585526695,90.0,54.34,101.5,-4.94,4.46
Amla,31,IN,1585526695,38.0,21.93,78.12,23.15,1.6
Adrar,57,MR,1585526420,19.0,20.5,-10.07,21.42,4.38
Port-Gentil,99,GA,1585526695,80.0,-0.72,8.78,27.99,3.31
Tulum,40,MX,1585526696,65.0,20.22,-87.47,28.0,6.7
Puerto Nariño,90,CO,1585526696,100.0,-3.77,-70.38,23.0,1.0
Cherskiy,100,RU,1585526696,92.0,68.75,161.3,-3.56,7.79
Tura,0,IN,1585526697,28.0,25.52,90.22,18.25,1.43
West Plains,1,US,1585526432,25.0,36.73,-91.85,19.44,4.6
Qixingtai,76,CN,1585526697,82.0,30.41,111.89,8.89,0.27
Yining,95,CN,1585526698,79.0,29.04,114.56,8.09,0.58
Lamont,75,US,1585526698,39.0,35.26,-118.91,18.0,5.7
Étampes,96,FR,1585526699,47.0,48.43,2.15,4.0,7.7
Vizinga,100,RU,1585526699,95.0,61.07,50.1,-2.59,1.51
Kaili,99,ID,1585526699,71.0,-3.46,120.21,23.04,0.84
Clyde River,1,CA,1585526699,83.0,70.47,-68.59,-23.0,1.0
Fairbanks,1,US,1585526433,34.0,64.84,-147.72,-7.78,5.1
Turaif,0,SA,1585526700,54.0,31.67,38.66,12.0,5.1
Teshie,99,GH,1585526700,88.0,5.58,-0.11,27.0,4.1
Pahrump,40,US,1585526434,50.0,36.21,-115.98,16.11,2.6
Province of Mantua,74,IT,1585526701,58.0,45.17,10.78,14.0,2.1
Semey,5,KZ,1585526701,93.0,50.41,80.23,-6.49,3.2
Flinders,98,AU,1585526702,68.0,-34.58,150.86,22.22,3.1
Bada,5,RU,1585526702,85.0,51.39,109.87,-5.66,3.64
Buala,99,SB,1585526702,83.0,-8.14,159.59,26.74,1.95
Bucerías,5,MX,1585526702,69.0,20.75,-105.33,26.0,5.7
Davila,20,PH,1585526703,83.0,18.47,120.58,25.0,1.5
Yumen,86,CN,1585526407,39.0,40.28,97.2,2.53,1.73
Marawi,91,PH,1585526704,57.0,8.0,124.29,24.5,1.22
Ancud,75,CL,1585526704,76.0,-41.87,-73.82,11.0,2.1
Jiuquan,98,CN,1585526704,40.0,39.74,98.52,2.37,2.41
Hong Kong,40,HK,1585526478,94.0,22.29,114.16,21.67,4.6
Le Port,36,RE,1585526705,94.0,-20.94,55.29,26.0,3.6
Florianópolis,68,BR,1585526559,69.0,-27.61,-48.5,25.56,2.6
Maragogi,60,BR,1585526706,82.0,-9.01,-35.22,26.8,4.43
Bambous Virieux,40,MU,1585526419,88.0,-20.34,57.76,27.0,3.6
Nemuro,20,JP,1585526706,60.0,43.32,145.57,4.0,5.1
Tomatlán,0,MX,1585526706,46.0,19.93,-105.25,27.83,3.52
Fort Walton Beach,1,US,1585526707,83.0,30.41,-86.62,27.0,1.5
Berdigestyakh,93,RU,1585526707,95.0,62.1,126.7,-7.19,2.34
Tallahassee,40,US,1585526559,61.0,30.44,-84.28,28.0,4.6
Rieti,85,IT,1585526708,92.0,42.41,12.86,11.11,0.55
Miraflores,20,MX,1585526708,20.0,19.22,-98.81,34.0,6.2
Quatre Cocos,40,MU,1585526708,88.0,-20.21,57.76,27.0,3.6
Dikson,100,RU,1585526709,93.0,73.51,80.55,-18.03,4.89
Virginia Beach,75,US,1585526700,51.0,36.85,-75.98,29.0,6.2
Rome,90,US,1585526525,87.0,43.21,-75.46,13.33,3.6
Qeshm,90,IR,1585526710,88.0,26.96,56.27,21.0,3.1
Natal,20,BR,1585526481,94.0,-5.79,-35.21,26.0,2.1
Ponta Delgada,75,PT,1585526661,76.0,37.73,-25.67,14.0,3.6
Port Blair,80,IN,1585526712,72.0,11.67,92.75,26.71,2.38
Garoowe,12,SO,1585526712,73.0,8.41,48.48,24.26,5.05
Nuevo Progreso,34,MX,1585526712,78.0,23.17,-97.95,27.78,3.13
Shakawe,55,BW,1585526713,60.0,-18.37,21.85,19.98,1.93
Slave Lake,75,CA,1585526713,73.0,55.28,-114.77,-7.0,1.5
Whyalla,40,AU,1585526713,68.0,-33.03,137.58,18.0,0.5
Rudnaya Pristan',0,RU,1585526714,53.0,44.36,135.81,7.42,2.33
Namatanai,97,PG,1585526437,68.0,-3.67,152.43,29.04,2.03
Kavaratti,20,IN,1585526714,78.0,10.57,72.64,27.0,1.0
Vestmanna,3,FO,1585526541,93.0,62.16,-7.17,6.0,5.7
Udachny,90,RU,1585526715,92.0,66.42,112.4,-12.0,1.0
Balabac,26,PH,1585526715,72.0,7.99,117.06,28.66,5.34
San Jose,75,US,1585526478,51.0,37.34,-121.89,17.22,1.5
Belaya Gora,100,RU,1585526716,92.0,68.53,146.42,-15.91,4.61
Porto-Novo,40,BJ,1585526717,88.0,6.5,2.6,28.0,4.6
Kavieng,100,PG,1585526717,71.0,-2.57,150.8,28.93,2.35
Pangai,52,TO,1585526717,81.0,-19.8,-174.35,27.27,7.84
Mujiayingzi,0,CN,1585526717,39.0,42.12,118.78,7.49,4.01
Kaspiysk,25,RU,1585526718,63.0,42.88,47.64,3.0,3.0
Ploemeur,90,FR,1585526718,56.0,47.73,-3.43,5.0,9.8
La Santisima Trinidad,95,BO,1585526718,91.0,-14.83,-64.9,24.15,0.82
Wanning,25,CN,1585526718,83.0,18.8,110.4,26.37,5.11
Stornoway,89,GB,1585526719,81.0,58.21,-6.39,7.22,5.7
Talas,75,TR,1585526719,93.0,38.69,35.55,4.0,2.1
Saint George,40,US,1585526420,35.0,37.1,-113.58,14.44,3.1
Demyansk,100,RU,1585526720,84.0,57.64,32.47,-1.72,4.04
Hanmer Springs,97,NZ,1585526721,67.0,-42.52,172.82,13.11,1.04
Denpasar,20,ID,1585526639,94.0,-8.65,115.22,27.0,2.6
Jutaí,96,BR,1585526722,90.0,-5.18,-68.9,24.96,0.74
Kincardine,38,GB,1585526722,80.0,56.07,-3.72,5.56,2.6
Vostok,4,RU,1585526722,56.0,46.49,135.88,3.03,4.19
Baijiantan,0,CN,1585526722,69.0,45.63,85.18,0.42,3.3
Aklavik,20,CA,1585526723,58.0,68.22,-135.01,-21.0,2.1
Lavrentiya,0,RU,1585526723,88.0,65.58,-171.0,-9.71,3.18
Paracuru,20,BR,1585526723,79.0,-3.41,-39.03,29.0,3.6
Killybegs,20,IE,1585526724,78.0,54.63,-8.45,4.44,5.97
Sibu,75,MY,1585526724,100.0,2.3,111.82,25.0,1.0
Alofi,12,NU,1585526724,79.0,-19.06,-169.92,29.0,5.1
Ulladulla,100,AU,1585526725,68.0,-35.35,150.47,23.33,3.1
Soyo,100,AO,1585526725,88.0,-6.13,12.37,26.89,3.2
Korla,24,CN,1585526725,72.0,41.76,86.15,8.89,4.92
Kargasok,100,RU,1585526726,92.0,59.06,80.86,1.83,6.11
Bay Roberts,90,CA,1585526726,100.0,47.6,-53.26,-1.11,12.3
Marzuq,3,YE,1585526726,45.0,14.4,46.47,22.36,2.02
Kysyl-Syr,97,RU,1585526727,96.0,63.9,122.76,-7.63,2.33
Ponta do Sol,20,PT,1585526727,77.0,32.67,-17.1,16.0,2.6
Mayo,1,US,1585526727,87.0,38.89,-76.51,19.44,2.1
Isangel,98,VU,1585526728,87.0,-19.55,169.27,25.17,8.53
Itaituba,100,BR,1585526728,94.0,-4.28,-55.98,25.72,0.85
Laas,90,IT,1585526728,52.0,46.62,10.7,5.0,3.1
Talcahuano,0,CL,1585526728,59.0,-36.72,-73.12,16.0,6.2
Saint-François,90,FR,1585526729,93.0,46.42,3.91,3.0,1.5
Iqaluit,90,CA,1585526729,77.0,63.75,-68.51,-14.0,1.0
Florø,85,NO,1585526729,86.0,61.6,5.03,4.0,6.7
Payo,100,ID,1585526730,85.0,-3.75,103.64,23.61,0.47
Lixouri,3,GR,1585526730,92.0,38.2,20.43,7.78,0.84
Bundaberg,40,AU,1585526530,69.0,-24.85,152.35,26.0,3.1
Wasilla,1,US,1585526731,25.0,61.58,-149.44,0.0,14.9
Cockburn Town,7,TC,1585526731,81.0,21.46,-71.14,25.26,8.78
Bosaso,1,SO,1585526731,73.0,11.28,49.18,27.23,1.99
Gisenyi,40,RW,1585526731,45.0,-1.7,29.26,17.19,0.17
Lusambo,21,CD,1585526732,81.0,-4.97,23.45,20.6,0.35
Birao,88,CF,1585526732,14.0,10.28,22.79,26.27,3.62
Heihe,20,CN,1585526732,32.0,50.24,127.49,5.0,2.0
Gayéri,55,BF,1585526458,11.0,12.65,0.49,30.22,3.38
Sirte,94,LY,1585526733,72.0,31.21,16.59,17.48,6.73
Mutoko,40,ZW,1585526542,66.0,-17.4,32.23,15.2,0.72
Kerrville,90,US,1585526735,24.0,30.05,-99.14,22.22,4.1
Nago,1,JP,1585526735,78.0,26.59,127.98,23.0,3.6
Altagracia de Orituco,13,VE,1585526735,74.0,9.86,-66.38,22.94,3.59
Ushtobe,0,KZ,1585526736,78.0,45.25,77.98,-1.16,4.72
Den Helder,75,NL,1585526736,64.0,52.96,4.76,5.0,2.6
Korsholm,51,FI,1585526737,85.0,63.11,21.68,-3.33,1.0
Khovd,95,MN,1585526737,69.0,48.01,91.64,-7.26,1.24
Maple Creek,39,CA,1585526737,37.0,49.92,-109.48,11.23,5.79
Zabid,31,YE,1585526737,80.0,14.2,43.32,26.44,2.75
Sitka,90,US,1585526738,47.0,57.05,-135.33,2.0,7.2
Ajdabiya,79,LY,1585526739,50.0,30.76,20.23,19.86,4.34
Huarmey,100,PE,1585526739,70.0,-10.07,-78.15,24.41,3.21
Namtsy,40,RU,1585526739,78.0,62.72,129.67,-11.0,1.0
Hermiston,1,US,1585526740,34.0,45.84,-119.29,19.0,6.7
Wewak,100,PG,1585526740,73.0,-3.55,143.63,28.1,3.09
Aktobe,32,KZ,1585526740,73.0,50.28,57.21,-3.0,2.0
Ferkessédougou,67,CI,1585526740,62.0,9.6,-5.2,26.23,3.28
Goderich,93,CA,1585526696,83.0,43.75,-81.72,8.89,9.18
Borogontsy,100,RU,1585526741,94.0,62.67,131.17,-11.01,0.69
Olinda,75,BR,1585526568,94.0,-8.01,-34.86,26.0,2.1
Esfarāyen,75,IR,1585526741,87.0,37.08,57.51,9.0,2.34
Kendari,88,ID,1585526742,80.0,-3.94,122.5,27.22,1.84
Kununurra,50,AU,1585526742,69.0,-15.77,128.73,28.0,1.5
Saint-Félicien,90,CA,1585526742,69.0,48.65,-72.45,4.0,11.3
Ciudad Bolivar,79,VE,1585526743,49.0,8.12,-63.55,30.61,7.52
San Quintín,51,MX,1585526743,65.0,30.48,-115.95,16.13,10.71
Kamenka,64,RU,1585526743,58.0,51.32,42.77,2.78,0.89
Contai,0,IN,1585526744,58.0,21.78,87.75,26.32,2.91
Aktash,0,RU,1585526744,63.0,50.3,87.73,-20.39,1.71
Neuquén,0,AR,1585526675,32.0,-38.95,-68.06,18.4,4.18
Thinadhoo,88,MV,1585526526,60.0,0.53,72.93,28.6,2.62
Najrān,3,SA,1585526507,34.0,17.49,44.13,26.0,2.6
Omboué,92,GA,1585526746,87.0,-1.57,9.26,26.68,2.05
Keti Bandar,0,PK,1585526746,73.0,24.14,67.45,22.83,3.06
Arlit,50,NE,1585526747,17.0,18.74,7.39,28.82,2.27
Morristown,1,US,1585526747,32.0,36.21,-83.29,23.0,4.6
Conceição do Araguaia,52,BR,1585526748,66.0,-8.26,-49.26,30.0,1.5
Dudinka,75,RU,1585526748,92.0,69.41,86.18,-6.0,8.0
Baruun-Urt,98,MN,1585526748,59.0,46.68,113.28,-0.81,7.95
Sakakah,0,SA,1585526748,33.0,29.97,40.21,15.0,4.6
Visby,18,SE,1585526749,55.0,57.64,18.3,2.78,5.1
Yeppoon,12,AU,1585526749,69.0,-23.13,150.73,26.0,3.6
Talnakh,75,RU,1585526750,92.0,69.49,88.4,-6.0,8.0
Ereymentau,7,KZ,1585526750,93.0,51.62,73.1,-6.96,3.94
Nuuk,100,GL,1585526526,86.0,64.18,-51.72,-2.0,13.4
Corinth,20,GR,1585526751,87.0,37.94,22.96,11.67,1.19
Dunedin,100,NZ,1585526751,93.0,-45.87,170.5,12.78,7.55
Xingtai,77,CN,1585526752,66.0,37.06,114.49,8.02,3.65
Vilyuysk,96,RU,1585526510,96.0,63.76,121.62,-7.2,3.3
Yingkou,0,CN,1585526752,52.0,40.66,122.23,7.35,6.83
Batagay-Alyta,80,RU,1585526753,78.0,67.8,130.41,-17.6,1.19
Elbistan,92,TR,1585526754,50.0,38.21,37.2,3.41,2.35
Nizwá,29,OM,1585526754,51.0,22.93,57.53,20.36,2.4
Malanje,86,AO,1585526755,68.0,-9.54,16.34,17.05,0.6
Port Hardy,75,CA,1585526487,61.0,50.7,-127.42,9.0,4.1
Manggar,89,ID,1585526755,84.0,-2.88,108.27,27.18,3.26
Brae,55,GB,1585526756,81.0,60.4,-1.35,7.0,7.7
Mitchell,1,US,1585526699,30.0,43.71,-98.03,13.0,1.5
Yichun,90,CN,1585526756,57.0,47.7,128.9,4.18,1.55
Biryusinsk,99,RU,1585526756,94.0,55.96,97.82,-3.22,4.11
Outjo,49,NA,1585526757,93.0,-20.12,16.15,18.0,1.0
Port Hedland,4,AU,1585526757,83.0,-20.32,118.57,28.0,2.1
Vytegra,94,RU,1585526757,88.0,61.01,36.45,-4.22,1.05
Kungurtug,88,RU,1585526758,78.0,50.6,97.52,-13.03,0.48
Quelimane,13,MZ,1585526758,78.0,-17.88,36.89,25.0,1.0
Mount Gambier,40,AU,1585526758,100.0,-37.83,140.77,13.0,4.1
Matiri,99,TZ,1585526758,70.0,-10.75,34.9,17.16,0.8
San Cristobal,40,VE,1585526759,54.0,7.77,-72.22,29.0,3.1
Presidencia Roque Sáenz Peña,36,AR,1585526759,79.0,-26.79,-60.44,25.05,2.29
Comodoro Rivadavia,20,AR,1585526494,71.0,-45.87,-67.5,13.0,2.1
Punta Cardon,8,VE,1585526759,78.0,11.66,-70.22,26.1,11.92
Yelizovo,57,RU,1585526624,89.0,53.19,158.38,0.0,3.0
Gobabis,14,NA,1585526760,88.0,-22.45,18.97,18.0,1.0
Yerbogachën,100,RU,1585526760,92.0,61.28,108.01,-7.92,5.84
Zaysan,3,KZ,1585526761,78.0,47.47,84.87,-7.68,0.84
San Lorenzo,20,PY,1585526761,70.0,-25.33,-57.53,30.0,2.6
Oskaloosa,40,US,1585526761,47.0,41.3,-92.64,15.0,11.8
Bang Saphan,20,TH,1585526762,100.0,11.21,99.51,24.0,1.0
Gizo Government Station,60,SB,1585526762,65.0,-8.1,156.84,30.59,2.12
Chitral,100,PK,1585526762,30.0,35.85,71.79,6.78,0.97
Ondjiva,100,AO,1585526763,65.0,-17.07,15.73,19.76,3.65
Caceres,99,ES,1585526764,73.0,39.52,-6.37,11.11,0.45
Aswān,0,EG,1585526764,15.0,24.09,32.91,20.0,3.1
Xining,94,CN,1585526764,32.0,36.62,101.77,2.57,0.47
Monrovia,20,LR,1585526765,94.0,6.3,-10.8,24.0,1.06
Evanston,90,US,1585526765,65.0,42.04,-87.69,8.33,7.7
Shache,61,CN,1585526766,22.0,38.42,77.24,9.84,2.64
Tete,29,MZ,1585526766,83.0,-16.16,33.59,22.0,1.43
Igarka,100,RU,1585526766,97.0,67.47,86.58,-1.41,6.6
Sørland,100,NO,1585526767,88.0,67.67,12.69,-0.75,7.87
Imbituba,44,BR,1585526767,69.0,-28.24,-48.67,25.0,2.6
Richmond,75,US,1585526315,48.0,37.55,-77.46,29.0,6.7
Usevya,69,TZ,1585526767,70.0,-7.1,31.23,19.68,0.63
Sayyan,0,YE,1585526768,30.0,15.17,44.32,13.53,1.51
Portmarnock,3,IE,1585526768,78.0,53.42,-6.14,3.33,4.1
Portobelo,20,PA,1585526768,51.0,9.55,-79.65,30.0,6.7
Mollendo,39,PE,1585526768,74.0,-17.02,-72.01,21.9,3.26
Jequié,15,BR,1585526769,85.0,-13.86,-40.08,22.65,2.18
Ahipara,2,NZ,1585526769,64.0,-35.17,173.17,19.72,4.31
Puerto Peñasco,19,MX,1585526769,60.0,31.32,-113.53,20.0,3.13
Shingū,75,JP,1585526769,93.0,33.73,135.98,11.0,1.0
Dhidhdhoo,87,MV,1585526769,67.0,6.88,73.1,28.13,1.85
